도로명주소,관리기관명칭,위도,경도,주소길이 15이상
세종특별자치시조치원읍군청로93,세종시청,36.592923,127.292253,True
세종특별자치시한누리대로2130,세종시청,36.480098,127.289035,True
세종특별자치시조치원읍문예회관길22,시설관리사업소,36.599794,127.28718,True
세종특별자치시조치원읍대첩로116,시설관리사업소,36.59521,127.284356,True
세종특별자치시연서면월하천로289,세종시농업기술센터,36.572262,127.283121,True
